[
  {
    "region": "Област Благоевград",
    "settlements": [
      {
        "name": "Абланица",
        "latitude": 41.5378,
        "longitude": 23.9341,
        "type": "село"
      },
      {
        "name": "Аврамово",
        "latitude": 42.0333,
        "longitude": 23.6667,
        "type": "село"
      },
      {
        "name": "Бабяк",
        "latitude": 41.9552,
        "longitude": 23.6815,
        "type": "село"
      },
      {
        "name": "Балдево",
        "latitude": 41.6287,
        "longitude": 23.7695,
        "type": "село"
      },
      {
        "name": "Баничан",
        "latitude": 41.6207,
        "longitude": 23.7375,
        "type": "село"
      },
      {
        "name": "Банско",
        "latitude": 41.8404,
        "longitude": 23.4857,
        "type": "град"
      },
      {
        "name": "Баня",
        "latitude": 42.5535,
        "longitude": 24.8318,
        "type": "село"
      },
      {
        "name": "Баскалци",
        "latitude": 41.4749,
        "longitude": 23.0068,
        "type": "село"
      },
      {
        "name": "Бачево",
        "latitude": 41.9202,
        "longitude": 23.453,
        "type": "село"
      },
      {
        "name": "Бел камен",
        "latitude": 41.65,
        "longitude": 23.7333,
        "type": "село"
      },
      {
        "name": "Беласица",
        "latitude": 41.3662,
        "longitude": 23.1346,
        "type": "село"
      },
      {
        "name": "Белевехчево",
        "latitude": 41.566,
        "longitude": 23.309,
        "type": "село"
      },
      {
        "name": "Белица",
        "latitude": 41.9508,
        "longitude": 23.5592,
        "type": "град"
      },
      {
        "name": "Бело поле",
        "latitude": 42.0319,
        "longitude": 23.0473,
        "type": "село"
      },
      {
        "name": "Бельово",
        "latitude": 41.4805,
        "longitude": 23.5501,
        "type": "село"
      },
      {
        "name": "Беслен",
        "latitude": 41.4716,
        "longitude": 23.965,
        "type": "село"
      },
      {
        "name": "Бистрица",
        "latitude": 42.0548,
        "longitude": 23.1801,
        "type": "село"
      },
      {
        "name": "Благоевград",
        "latitude": 42.0209,
        "longitude": 23.0943,
        "type": "град"
      },
      {
        "name": "Блатска",
        "latitude": 41.5342,
        "longitude": 23.8647,
        "type": "село"
      },
      {
        "name": "Боголин",
        "latitude": 41.5399,
        "longitude": 23.9571,
        "type": "село"
      },
      {
        "name": "Богородица",
        "latitude": 41.5111,
        "longitude": 23.1901,
        "type": "село"
      },
      {
        "name": "Бождово",
        "latitude": 41.6008,
        "longitude": 23.3605,
        "type": "село"
      },
      {
        "name": "Боровичене",
        "latitude": 41.4172,
        "longitude": 23.0087,
        "type": "село"
      },
      {
        "name": "Борово",
        "latitude": 43.4842,
        "longitude": 25.8056,
        "type": "село"
      },
      {
        "name": "Брежани",
        "latitude": 41.863,
        "longitude": 23.1864,
        "type": "село"
      },
      {
        "name": "Брезница",
        "latitude": 41.6714,
        "longitude": 23.6618,
        "type": "село"
      },
      {
        "name": "Брестово",
        "latitude": 41.8283,
        "longitude": 23.0038,
        "type": "село"
      },
      {
        "name": "Будилци",
        "latitude": 41.6912,
        "longitude": 23.1194,
        "type": "село"
      },
      {
        "name": "Буково",
        "latitude": 41.712,
        "longitude": 23.714,
        "type": "село"
      },
      {
        "name": "Бунцево",
        "latitude": 42.0018,
        "longitude": 23.7101,
        "type": "село"
      },
      {
        "name": "Бучино",
        "latitude": 42.0462,
        "longitude": 23.0229,
        "type": "село"
      },
      {
        "name": "Българчево",
        "latitude": 42.0241,
        "longitude": 23.0325,
        "type": "село"
      },
      {
        "name": "Ваклиново",
        "latitude": 41.5956,
        "longitude": 24.0634,
        "type": "село"
      },
      {
        "name": "Велющец",
        "latitude": 41.5881,
        "longitude": 23.1415,
        "type": "село"
      },
      {
        "name": "Виногради",
        "latitude": 41.4974,
        "longitude": 23.3838,
        "type": "село"
      },
      {
        "name": "Вихрен",
        "latitude": 41.7672,
        "longitude": 23.3989,
        "type": "село"
      },
      {
        "name": "Вишлене",
        "latitude": 41.4383,
        "longitude": 23.0627,
        "type": "село"
      },
      {
        "name": "Влахи",
        "latitude": 41.7382,
        "longitude": 23.2309,
        "type": "село"
      },
      {
        "name": "Волно",
        "latitude": 41.4794,
        "longitude": 23.0269,
        "type": "село"
      },
      {
        "name": "Вракуповица",
        "latitude": 41.662,
        "longitude": 23.089,
        "type": "село"
      },
      {
        "name": "Враня",
        "latitude": 42.6399,
        "longitude": 23.4322,
        "type": "село"
      },
      {
        "name": "Вълково",
        "latitude": 41.578,
        "longitude": 23.222,
        "type": "село"
      },
      {
        "name": "Вълкосел",
        "latitude": 41.5289,
        "longitude": 23.9854,
        "type": "село"
      },
      {
        "name": "Върхари",
        "latitude": 41.5433,
        "longitude": 25.3796,
        "type": "село"
      },
      {
        "name": "Габрене",
        "latitude": 41.3678,
        "longitude": 22.973,
        "type": "село"
      },
      {
        "name": "Габрово",
        "latitude": 41.8979,
        "longitude": 22.9435,
        "type": "село"
      },
      {
        "name": "Гайтаниново",
        "latitude": 41.4515,
        "longitude": 23.7142,
        "type": "село"
      },
      {
        "name": "Гега",
        "latitude": 41.4501,
        "longitude": 23.0038,
        "type": "село"
      },
      {
        "name": "Генерал Тодоров",
        "latitude": 41.4549,
        "longitude": 23.2868,
        "type": "село"
      },
      {
        "name": "Годешево",
        "latitude": 41.475,
        "longitude": 24.0519,
        "type": "село"
      },
      {
        "name": "Годлево",
        "latitude": 41.9292,
        "longitude": 23.4784,
        "type": "село"
      },
      {
        "name": "Голем Цалим",
        "latitude": 41.6079,
        "longitude": 23.3363,
        "type": "село"
      },
      {
        "name": "Голешово",
        "latitude": 41.4325,
        "longitude": 23.5908,
        "type": "село"
      },
      {
        "name": "Гореме",
        "latitude": 41.6411,
        "longitude": 23.0914,
        "type": "село"
      },
      {
        "name": "Горна Брезница",
        "latitude": 41.7436,
        "longitude": 23.1162,
        "type": "село"
      },
      {
        "name": "Горна Крушица",
        "latitude": 41.668,
        "longitude": 23.1646,
        "type": "село"
      },
      {
        "name": "Горна Рибница",
        "latitude": 41.6439,
        "longitude": 23.0353,
        "type": "село"
      },
      {
        "name": "Горна Сушица",
        "latitude": 41.5537,
        "longitude": 23.3877,
        "type": "село"
      },
      {
        "name": "Горно Драглище",
        "latitude": 41.9468,
        "longitude": 23.5093,
        "type": "село"
      },
      {
        "name": "Горно Дряново",
        "latitude": 41.6524,
        "longitude": 23.8267,
        "type": "село"
      },
      {
        "name": "Горно Краище",
        "latitude": 41.9007,
        "longitude": 23.5898,
        "type": "село"
      },
      {
        "name": "Горно Осеново",
        "latitude": 41.9926,
        "longitude": 23.2649,
        "type": "село"
      },
      {
        "name": "Горно Спанчево",
        "latitude": 41.5024,
        "longitude": 23.5018,
        "type": "село"
      },
      {
        "name": "Горно Хърсово",
        "latitude": 42.0179,
        "longitude": 23.1788,
        "type": "село"
      },
      {
        "name": "Горчево",
        "latitude": 41.451,
        "longitude": 23.0276,
        "type": "село"
      },
      {
        "name": "Господинци",
        "latitude": 41.6579,
        "longitude": 23.7299,
        "type": "село"
      },
      {
        "name": "Гостун",
        "latitude": 41.7973,
        "longitude": 23.6904,
        "type": "село"
      },
      {
        "name": "Гоце Делчев",
        "latitude": 41.5728,
        "longitude": 23.7283,
        "type": "град"
      },
      {
        "name": "Градево",
        "latitude": 41.9193,
        "longitude": 23.196,
        "type": "село"
      },
      {
        "name": "Гълъбово",
        "latitude": 42.1358,
        "longitude": 25.8651,
        "type": "село"
      },
      {
        "name": "Гърмен",
        "latitude": 41.5982,
        "longitude": 23.7986,
        "type": "село"
      },
      {
        "name": "Гюргево",
        "latitude": 41.4752,
        "longitude": 23.1521,
        "type": "село"
      },
      {
        "name": "Дагоново",
        "latitude": 41.9544,
        "longitude": 23.5953,
        "type": "село"
      },
      {
        "name": "Дамяница",
        "latitude": 41.5114,
        "longitude": 23.2664,
        "type": "село"
      },
      {
        "name": "Дебочица",
        "latitude": 41.8683,
        "longitude": 22.9537,
        "type": "село"
      },
      {
        "name": "Дебрен",
        "latitude": 41.5818,
        "longitude": 23.8229,
        "type": "село"
      },
      {
        "name": "Дебрене",
        "latitude": 41.5771,
        "longitude": 23.3143,
        "type": "село"
      },
      {
        "name": "Делвино",
        "latitude": 42.0212,
        "longitude": 23.1332,
        "type": "село"
      },
      {
        "name": "Делчево",
        "latitude": 41.5556,
        "longitude": 23.6968,
        "type": "село"
      },
      {
        "name": "Джигурово",
        "latitude": 41.5602,
        "longitude": 23.3119,
        "type": "село"
      },
      {
        "name": "Добри лаки",
        "latitude": 41.5811,
        "longitude": 22.9948,
        "type": "село"
      },
      {
        "name": "Добринище",
        "latitude": 41.8202,
        "longitude": 23.5593,
        "type": "село"
      },
      {
        "name": "Добротино",
        "latitude": 41.5864,
        "longitude": 23.68,
        "type": "село"
      },
      {
        "name": "Добърско",
        "latitude": 41.9693,
        "longitude": 23.4797,
        "type": "село"
      },
      {
        "name": "Докатичево",
        "latitude": 41.8814,
        "longitude": 23.0626,
        "type": "село"
      },
      {
        "name": "Долен",
        "latitude": 41.6237,
        "longitude": 23.9314,
        "type": "село"
      },
      {
        "name": "Долене",
        "latitude": 41.4462,
        "longitude": 23.0306,
        "type": "село"
      },
      {
        "name": "Долени",
        "latitude": 41.5726,
        "longitude": 23.4133,
        "type": "село"
      },
      {
        "name": "Долна Градешница",
        "latitude": 41.6818,
        "longitude": 23.184,
        "type": "село"
      },
      {
        "name": "Долна Крушица",
        "latitude": 41.4248,
        "longitude": 22.984,
        "type": "село"
      },
      {
        "name": "Долна Рибница",
        "latitude": 41.4482,
        "longitude": 23.0957,
        "type": "село"
      },
      {
        "name": "Долно Драглище",
        "latitude": 41.9343,
        "longitude": 23.5144,
        "type": "село"
      },
      {
        "name": "Долно Дряново",
        "latitude": 41.5879,
        "longitude": 23.8955,
        "type": "село"
      },
      {
        "name": "Долно Осеново",
        "latitude": 41.9544,
        "longitude": 23.2413,
        "type": "село"
      },
      {
        "name": "Долно Спанчево",
        "latitude": 41.4232,
        "longitude": 23.3798,
        "type": "село"
      },
      {
        "name": "Драгостин",
        "latitude": 41.5745,
        "longitude": 23.6973,
        "type": "село"
      },
      {
        "name": "Драгуш",
        "latitude": 41.5174,
        "longitude": 23.0916,
        "type": "село"
      },
      {
        "name": "Драката",
        "latitude": 41.6089,
        "longitude": 23.2057,
        "type": "село"
      },
      {
        "name": "Дрангово",
        "latitude": 41.4164,
        "longitude": 23.2874,
        "type": "село"
      },
      {
        "name": "Дренково",
        "latitude": 42.0253,
        "longitude": 22.9315,
        "type": "село"
      },
      {
        "name": "Дреновица",
        "latitude": 41.4141,
        "longitude": 23.0708,
        "type": "село"
      },
      {
        "name": "Дреново",
        "latitude": 41.5107,
        "longitude": 23.1568,
        "type": "село"
      },
      {
        "name": "Дъбница",
        "latitude": 41.5708,
        "longitude": 23.8342,
        "type": "село"
      },
      {
        "name": "Дъбрава",
        "latitude": 42.0484,
        "longitude": 23.1318,
        "type": "село"
      },
      {
        "name": "Езерец",
        "latitude": 43.5949,
        "longitude": 28.5362,
        "type": "село"
      },
      {
        "name": "Еленово",
        "latitude": 42.001,
        "longitude": 23.1274,
        "type": "село"
      },
      {
        "name": "Елешница",
        "latitude": 41.8643,
        "longitude": 23.6167,
        "type": "село"
      },
      {
        "name": "Железница",
        "latitude": 41.9228,
        "longitude": 23.111,
        "type": "село"
      },
      {
        "name": "Жижево",
        "latitude": 41.5511,
        "longitude": 24.0293,
        "type": "село"
      },
      {
        "name": "Занога",
        "latitude": 41.5281,
        "longitude": 23.0609,
        "type": "село"
      },
      {
        "name": "Зелендол",
        "latitude": 42.0093,
        "longitude": 23.0319,
        "type": "село"
      },
      {
        "name": "Златарица",
        "latitude": 43.0496,
        "longitude": 25.8927,
        "type": "село"
      },
      {
        "name": "Златолист",
        "latitude": 41.4947,
        "longitude": 23.4204,
        "type": "село"
      },
      {
        "name": "Зойчене",
        "latitude": 41.4576,
        "longitude": 23.0191,
        "type": "село"
      },
      {
        "name": "Зорница",
        "latitude": 42.3847,
        "longitude": 26.9289,
        "type": "село"
      },
      {
        "name": "Иваново",
        "latitude": 41.533,
        "longitude": 23.0686,
        "type": "село"
      },
      {
        "name": "Игралище",
        "latitude": 41.5663,
        "longitude": 23.1242,
        "type": "село"
      },
      {
        "name": "Изгрев",
        "latitude": 42.0018,
        "longitude": 23.1056,
        "type": "село"
      },
      {
        "name": "Илинден",
        "latitude": 41.9882,
        "longitude": 21.6422,
        "type": "село"
      },
      {
        "name": "Илинденци",
        "latitude": 41.6481,
        "longitude": 23.2298,
        "type": "село"
      },
      {
        "name": "Кавракирово",
        "latitude": 41.4351,
        "longitude": 23.166,
        "type": "село"
      },
      {
        "name": "Калиманци",
        "latitude": 43.2775,
        "longitude": 27.7234,
        "type": "село"
      },
      {
        "name": "Камена",
        "latitude": 41.3641,
        "longitude": 23.0707,
        "type": "село"
      },
      {
        "name": "Каменица",
        "latitude": 41.6503,
        "longitude": 23.1599,
        "type": "село"
      },
      {
        "name": "Капатово",
        "latitude": 41.4631,
        "longitude": 23.3571,
        "type": "село"
      },
      {
        "name": "Катунци",
        "latitude": 41.4443,
        "longitude": 23.4332,
        "type": "село"
      },
      {
        "name": "Кашина",
        "latitude": 41.5468,
        "longitude": 23.4686,
        "type": "село"
      },
      {
        "name": "Кладенци",
        "latitude": 41.4241,
        "longitude": 23.0412,
        "type": "село"
      },
      {
        "name": "Клепало",
        "latitude": 41.6223,
        "longitude": 22.9738,
        "type": "село"
      },
      {
        "name": "Клисура",
        "latitude": 42.0096,
        "longitude": 22.9161,
        "type": "село"
      },
      {
        "name": "Ключ",
        "latitude": 41.364,
        "longitude": 23.0172,
        "type": "село"
      },
      {
        "name": "Ковачевица",
        "latitude": 41.6843,
        "longitude": 23.8264,
        "type": "село"
      },
      {
        "name": "Ковачево",
        "latitude": 41.4979,
        "longitude": 23.4823,
        "type": "село"
      },
      {
        "name": "Коларово",
        "latitude": 41.3649,
        "longitude": 23.1096,
        "type": "село"
      },
      {
        "name": "Колибите",
        "latitude": 41.5829,
        "longitude": 23.0292,
        "type": "село"
      },
      {
        "name": "Конарско",
        "latitude": 42.0165,
        "longitude": 23.7228,
        "type": "село"
      },
      {
        "name": "Копривлен",
        "latitude": 41.5197,
        "longitude": 23.7961,
        "type": "село"
      },
      {
        "name": "Корница",
        "latitude": 41.64,
        "longitude": 23.6772,
        "type": "село"
      },
      {
        "name": "Кочан",
        "latitude": 41.5869,
        "longitude": 24.0279,
        "type": "село"
      },
      {
        "name": "Краище",
        "latitude": 41.9217,
        "longitude": 23.5883,
        "type": "село"
      },
      {
        "name": "Кремен",
        "latitude": 41.745,
        "longitude": 23.6385,
        "type": "село"
      },
      {
        "name": "Кресна",
        "latitude": 41.7205,
        "longitude": 23.1664,
        "type": "град"
      },
      {
        "name": "Крибул",
        "latitude": 41.5718,
        "longitude": 23.9468,
        "type": "село"
      },
      {
        "name": "Кромидово",
        "latitude": 41.4573,
        "longitude": 23.3637,
        "type": "село"
      },
      {
        "name": "Крупник",
        "latitude": 41.8505,
        "longitude": 23.1168,
        "type": "село"
      },
      {
        "name": "Крушево",
        "latitude": 41.602,
        "longitude": 23.8779,
        "type": "село"
      },
      {
        "name": "Крънджилица",
        "latitude": 41.5395,
        "longitude": 23.0576,
        "type": "село"
      },
      {
        "name": "Кръстилци",
        "latitude": 41.5515,
        "longitude": 23.2005,
        "type": "село"
      },
      {
        "name": "Кузьово",
        "latitude": 41.9387,
        "longitude": 23.6563,
        "type": "село"
      },
      {
        "name": "Кукурахцево",
        "latitude": 41.4696,
        "longitude": 22.9958,
        "type": "село"
      },
      {
        "name": "Кулата",
        "latitude": 41.3876,
        "longitude": 23.3633,
        "type": "село"
      },
      {
        "name": "Кърланово",
        "latitude": 41.5442,
        "longitude": 23.4169,
        "type": "село"
      },
      {
        "name": "Кърналово",
        "latitude": 41.4622,
        "longitude": 23.2208,
        "type": "село"
      },
      {
        "name": "Кърпелево",
        "latitude": 41.6424,
        "longitude": 23.1186,
        "type": "село"
      },
      {
        "name": "Ладарево",
        "latitude": 41.5512,
        "longitude": 23.3431,
        "type": "село"
      },
      {
        "name": "Ласкарево",
        "latitude": 41.5444,
        "longitude": 23.3331,
        "type": "село"
      },
      {
        "name": "Лебница",
        "latitude": 41.5219,
        "longitude": 23.2422,
        "type": "село"
      },
      {
        "name": "Левуново",
        "latitude": 41.4872,
        "longitude": 23.3055,
        "type": "село"
      },
      {
        "name": "Лехово",
        "latitude": 41.4102,
        "longitude": 23.4868,
        "type": "село"
      },
      {
        "name": "Лешко",
        "latitude": 41.9325,
        "longitude": 22.9752,
        "type": "село"
      },
      {
        "name": "Лешница",
        "latitude": 43.0057,
        "longitude": 24.7011,
        "type": "село"
      },
      {
        "name": "Лещен",
        "latitude": 41.6367,
        "longitude": 23.8289,
        "type": "село"
      },
      {
        "name": "Лиляново",
        "latitude": 41.6164,
        "longitude": 23.3164,
        "type": "село"
      },
      {
        "name": "Лисия",
        "latitude": 42.0618,
        "longitude": 22.9366,
        "type": "село"
      },
      {
        "name": "Логодаж",
        "latitude": 41.9927,
        "longitude": 22.934,
        "type": "село"
      },
      {
        "name": "Лозеница",
        "latitude": 41.5044,
        "longitude": 23.3724,
        "type": "село"
      },
      {
        "name": "Лъжница",
        "latitude": 41.6191,
        "longitude": 23.677,
        "type": "село"
      },
      {
        "name": "Лъки",
        "latitude": 41.833,
        "longitude": 24.8314,
        "type": "село"
      },
      {
        "name": "Любовище",
        "latitude": 41.5273,
        "longitude": 23.4425,
        "type": "село"
      },
      {
        "name": "Любовка",
        "latitude": 41.5787,
        "longitude": 23.3644,
        "type": "село"
      },
      {
        "name": "Лютово",
        "latitude": 41.9465,
        "longitude": 23.6319,
        "type": "село"
      },
      {
        "name": "Малки Цалим",
        "latitude": 41.6018,
        "longitude": 23.3472,
        "type": "село"
      },
      {
        "name": "Марикостиново",
        "latitude": 41.4314,
        "longitude": 23.3335,
        "type": "село"
      },
      {
        "name": "Марино поле",
        "latitude": 41.4132,
        "longitude": 23.3487,
        "type": "село"
      },
      {
        "name": "Марулево",
        "latitude": 41.995,
        "longitude": 23.1512,
        "type": "село"
      },
      {
        "name": "Марчево",
        "latitude": 41.6106,
        "longitude": 23.796,
        "type": "село"
      },
      {
        "name": "Махалата",
        "latitude": 41.5784,
        "longitude": 23.0955,
        "type": "село"
      },
      {
        "name": "Мелник",
        "latitude": 41.5246,
        "longitude": 23.3915,
        "type": "град"
      },
      {
        "name": "Мендово",
        "latitude": 41.4205,
        "longitude": 23.1183,
        "type": "село"
      },
      {
        "name": "Места",
        "latitude": 41.7614,
        "longitude": 23.6729,
        "type": "село"
      },
      {
        "name": "Мечкул",
        "latitude": 41.8243,
        "longitude": 23.2018,
        "type": "село"
      },
      {
        "name": "Микрево",
        "latitude": 41.6228,
        "longitude": 23.1963,
        "type": "село"
      },
      {
        "name": "Митино",
        "latitude": 41.4306,
        "longitude": 23.2532,
        "type": "село"
      },
      {
        "name": "Михнево",
        "latitude": 41.4584,
        "longitude": 23.192,
        "type": "село"
      },
      {
        "name": "Мощанец",
        "latitude": 41.9668,
        "longitude": 23.0727,
        "type": "село"
      },
      {
        "name": "Мусомища",
        "latitude": 41.5534,
        "longitude": 23.7476,
        "type": "село"
      },
      {
        "name": "Никудин",
        "latitude": 41.5665,
        "longitude": 23.0439,
        "type": "село"
      },
      {
        "name": "Нова Ловча",
        "latitude": 41.4206,
        "longitude": 23.7208,
        "type": "село"
      },
      {
        "name": "Ново Делчево",
        "latitude": 41.5064,
        "longitude": 23.2838,
        "type": "село"
      },
      {
        "name": "Ново Кономлади",
        "latitude": 41.4545,
        "longitude": 23.3314,
        "type": "село"
      },
      {
        "name": "Ново Лески",
        "latitude": 41.532,
        "longitude": 23.7786,
        "type": "село"
      },
      {
        "name": "Ново село",
        "latitude": 41.7271,
        "longitude": 23.1675,
        "type": "село"
      },
      {
        "name": "Ново Ходжово",
        "latitude": 41.4074,
        "longitude": 23.3994,
        "type": "село"
      },
      {
        "name": "Обел",
        "latitude": 41.9747,
        "longitude": 22.9092,
        "type": "село"
      },
      {
        "name": "Обидим",
        "latitude": 41.7875,
        "longitude": 23.6407,
        "type": "село"
      },
      {
        "name": "Огняново",
        "latitude": 41.6121,
        "longitude": 23.7876,
        "type": "село"
      },
      {
        "name": "Ореше",
        "latitude": 41.6231,
        "longitude": 23.8817,
        "type": "село"
      },
      {
        "name": "Орцево",
        "latitude": 41.9669,
        "longitude": 23.7377,
        "type": "село"
      },
      {
        "name": "Осеново",
        "latitude": 41.7784,
        "longitude": 23.7255,
        "type": "село"
      },
      {
        "name": "Осиково",
        "latitude": 41.696,
        "longitude": 23.777,
        "type": "село"
      },
      {
        "name": "Осина",
        "latitude": 41.6311,
        "longitude": 24.0804,
        "type": "село"
      },
      {
        "name": "Ощава",
        "latitude": 41.7901,
        "longitude": 23.2267,
        "type": "село"
      },
      {
        "name": "Падеш",
        "latitude": 41.9317,
        "longitude": 23.0022,
        "type": "село"
      },
      {
        "name": "Палат",
        "latitude": 41.5909,
        "longitude": 23.1881,
        "type": "село"
      },
      {
        "name": "Палатник",
        "latitude": 41.9111,
        "longitude": 23.6717,
        "type": "село"
      },
      {
        "name": "Парил",
        "latitude": 41.4344,
        "longitude": 23.6821,
        "type": "село"
      },
      {
        "name": "Петрелик",
        "latitude": 41.4852,
        "longitude": 23.8636,
        "type": "село"
      },
      {
        "name": "Петрич",
        "latitude": 41.3981,
        "longitude": 23.2067,
        "type": "град"
      },
      {
        "name": "Петрово",
        "latitude": 48.3349,
        "longitude": 33.2705,
        "type": "село"
      },
      {
        "name": "Пиперица",
        "latitude": 41.4109,
        "longitude": 23.4393,
        "type": "село"
      },
      {
        "name": "Пирин",
        "latitude": 41.6209,
        "longitude": 23.5504,
        "type": "село"
      },
      {
        "name": "Плетена",
        "latitude": 41.6406,
        "longitude": 23.9561,
        "type": "село"
      },
      {
        "name": "Плоски",
        "latitude": 41.6449,
        "longitude": 23.2667,
        "type": "село"
      },
      {
        "name": "Покровник",
        "latitude": 41.9759,
        "longitude": 23.0529,
        "type": "село"
      },
      {
        "name": "Полена",
        "latitude": 41.8445,
        "longitude": 23.1047,
        "type": "село"
      },
      {
        "name": "Поленица",
        "latitude": 41.5659,
        "longitude": 23.2975,
        "type": "село"
      },
      {
        "name": "Полето",
        "latitude": 41.8614,
        "longitude": 23.1476,
        "type": "село"
      },
      {
        "name": "Право бърдо",
        "latitude": 41.4379,
        "longitude": 23.0836,
        "type": "село"
      },
      {
        "name": "Първомай",
        "latitude": 41.399,
        "longitude": 23.1398,
        "type": "село"
      },
      {
        "name": "Раздол",
        "latitude": 41.6158,
        "longitude": 23.0088,
        "type": "село"
      },
      {
        "name": "Разлог",
        "latitude": 41.886,
        "longitude": 23.4628,
        "type": "град"
      },
      {
        "name": "Ракитна",
        "latitude": 41.8333,
        "longitude": 23.2,
        "type": "село"
      },
      {
        "name": "Рибник",
        "latitude": 41.487,
        "longitude": 23.2557,
        "type": "село"
      },
      {
        "name": "Рибново",
        "latitude": 41.7184,
        "longitude": 23.7633,
        "type": "село"
      },
      {
        "name": "Рилци",
        "latitude": 42.0401,
        "longitude": 23.0656,
        "type": "село"
      },
      {
        "name": "Рожен",
        "latitude": 41.5346,
        "longitude": 23.4335,
        "type": "село"
      },
      {
        "name": "Рупите",
        "latitude": 41.4415,
        "longitude": 23.2408,
        "type": "село"
      },
      {
        "name": "Ръждак",
        "latitude": 41.4013,
        "longitude": 23.2403,
        "type": "село"
      },
      {
        "name": "Садово",
        "latitude": 41.5053,
        "longitude": 23.8213,
        "type": "село"
      },
      {
        "name": "Самуилова крепост",
        "latitude": 41.3947,
        "longitude": 23.029,
        "type": "село"
      },
      {
        "name": "Самуилово",
        "latitude": 41.3721,
        "longitude": 23.0885,
        "type": "село"
      },
      {
        "name": "Сандански",
        "latitude": 41.5678,
        "longitude": 23.2804,
        "type": "град"
      },
      {
        "name": "Сатовча",
        "latitude": 41.6195,
        "longitude": 23.976,
        "type": "село"
      },
      {
        "name": "Седелец",
        "latitude": 41.5885,
        "longitude": 23.0961,
        "type": "село"
      },
      {
        "name": "Селище",
        "latitude": 41.9964,
        "longitude": 22.9988,
        "type": "село"
      },
      {
        "name": "Сенокос",
        "latitude": 41.8316,
        "longitude": 23.2325,
        "type": "село"
      },
      {
        "name": "Симитли",
        "latitude": 41.8897,
        "longitude": 23.106,
        "type": "град"
      },
      {
        "name": "Склаве",
        "latitude": 41.5228,
        "longitude": 23.3201,
        "type": "село"
      },
      {
        "name": "Скребатно",
        "latitude": 41.6602,
        "longitude": 23.797,
        "type": "село"
      },
      {
        "name": "Скрът",
        "latitude": 41.3648,
        "longitude": 22.996,
        "type": "село"
      },
      {
        "name": "Слащен",
        "latitude": 41.4976,
        "longitude": 24.0182,
        "type": "село"
      },
      {
        "name": "Сливница",
        "latitude": 41.6922,
        "longitude": 23.1653,
        "type": "село"
      },
      {
        "name": "Смолево",
        "latitude": 42.0173,
        "longitude": 23.7628,
        "type": "село"
      },
      {
        "name": "Спатово",
        "latitude": 41.5081,
        "longitude": 23.325,
        "type": "село"
      },
      {
        "name": "Средна",
        "latitude": 41.5806,
        "longitude": 23.6828,
        "type": "село"
      },
      {
        "name": "Стара Кресна",
        "latitude": 41.7898,
        "longitude": 23.181,
        "type": "село"
      },
      {
        "name": "Старчево",
        "latitude": 41.4725,
        "longitude": 23.2321,
        "type": "село"
      },
      {
        "name": "Стожа",
        "latitude": 41.6195,
        "longitude": 23.3208,
        "type": "село"
      },
      {
        "name": "Струма",
        "latitude": 41.7155,
        "longitude": 23.263,
        "type": "село"
      },
      {
        "name": "Струмешница",
        "latitude": 41.395,
        "longitude": 23.0447,
        "type": "село"
      },
      {
        "name": "Струмяни",
        "latitude": 41.6399,
        "longitude": 23.2014,
        "type": "село"
      },
      {
        "name": "Сугарево",
        "latitude": 41.5612,
        "longitude": 23.4273,
        "type": "село"
      },
      {
        "name": "Сухострел",
        "latitude": 41.8398,
        "longitude": 22.9644,
        "type": "село"
      },
      {
        "name": "Сушица",
        "latitude": 41.817,
        "longitude": 23.0577,
        "type": "село"
      },
      {
        "name": "Теплен",
        "latitude": 41.4855,
        "longitude": 23.937,
        "type": "село"
      },
      {
        "name": "Тешово",
        "latitude": 41.4669,
        "longitude": 23.6972,
        "type": "село"
      },
      {
        "name": "Тонско дабе",
        "latitude": 41.5015,
        "longitude": 23.1308,
        "type": "село"
      },
      {
        "name": "Тополница",
        "latitude": 41.4046,
        "longitude": 23.3232,
        "type": "село"
      },
      {
        "name": "Тросково",
        "latitude": 42.0253,
        "longitude": 22.9315,
        "type": "село"
      },
      {
        "name": "Туховища",
        "latitude": 41.4985,
        "longitude": 24.0441,
        "type": "село"
      },
      {
        "name": "Филипово",
        "latitude": 41.7639,
        "longitude": 23.6828,
        "type": "село"
      },
      {
        "name": "Фъргово",
        "latitude": 41.5763,
        "longitude": 23.9964,
        "type": "село"
      },
      {
        "name": "Хаджидимово",
        "latitude": 41.5166,
        "longitude": 23.853,
        "type": "град"
      },
      {
        "name": "Хвостяне",
        "latitude": 41.5456,
        "longitude": 23.8474,
        "type": "село"
      },
      {
        "name": "Хотово",
        "latitude": 41.4991,
        "longitude": 23.3361,
        "type": "село"
      },
      {
        "name": "Храсна",
        "latitude": 41.4883,
        "longitude": 23.5331,
        "type": "село"
      },
      {
        "name": "Хърсово",
        "latitude": 41.461,
        "longitude": 23.383,
        "type": "село"
      },
      {
        "name": "Цапарево",
        "latitude": 41.6269,
        "longitude": 23.0998,
        "type": "село"
      },
      {
        "name": "Церово",
        "latitude": 42.3578,
        "longitude": 24.0522,
        "type": "село"
      },
      {
        "name": "Черешница",
        "latitude": 41.4952,
        "longitude": 23.4581,
        "type": "село"
      },
      {
        "name": "Черешово",
        "latitude": 41.9491,
        "longitude": 23.7086,
        "type": "село"
      },
      {
        "name": "Черна Места",
        "latitude": 42.0511,
        "longitude": 23.7291,
        "type": "село"
      },
      {
        "name": "Черниче",
        "latitude": 41.8596,
        "longitude": 23.1277,
        "type": "село"
      },
      {
        "name": "Чурилово",
        "latitude": 41.4604,
        "longitude": 22.9992,
        "type": "село"
      },
      {
        "name": "Чуричени",
        "latitude": 41.4559,
        "longitude": 23.1263,
        "type": "село"
      },
      {
        "name": "Чучулигово",
        "latitude": 41.403,
        "longitude": 23.3602,
        "type": "село"
      },
      {
        "name": "Юруково",
        "latitude": 41.9728,
        "longitude": 23.6163,
        "type": "село"
      },
      {
        "name": "Яворница",
        "latitude": 41.3643,
        "longitude": 23.0488,
        "type": "село"
      },
      {
        "name": "Яково",
        "latitude": 41.5155,
        "longitude": 23.1397,
        "type": "село"
      },
      {
        "name": "Якоруда",
        "latitude": 42.0178,
        "longitude": 23.6688,
        "type": "град"
      },
      {
        "name": "Яново",
        "latitude": 41.4384,
        "longitude": 23.4862,
        "type": "село"
      }
    ]
  },
  {
    "region": "Област Бургас",
    "settlements": [
      {
        "name": "Айтос",
        "latitude": 42.7031,
        "longitude": 27.2506,
        "type": "град"
      },
      {
        "name": "Александрово",
        "latitude": 42.6951,
        "longitude": 27.5972,
        "type": "село"
      },
      {
        "name": "Аспарухово",
        "latitude": 42.5172,
        "longitude": 27.1108,
        "type": "село"
      },
      {
        "name": "Атия",
        "latitude": 42.4391,
        "longitude": 27.5818,
        "type": "село"
      },
      {
        "name": "Ахелой",
        "latitude": 42.646,
        "longitude": 27.6494,
        "type": "село"
      },
      {
        "name": "Ахтопол",
        "latitude": 42.0994,
        "longitude": 27.9407,
        "type": "град"
      },
      {
        "name": "Балабанчево",
        "latitude": 42.784,
        "longitude": 26.7748,
        "type": "село"
      },
      {
        "name": "Банево",
        "latitude": 42.625,
        "longitude": 27.3958,
        "type": "село"
      },
      {
        "name": "Баня",
        "latitude": 42.7755,
        "longitude": 27.8182,
        "type": "село"
      },
      {
        "name": "Бата",
        "latitude": 43.9106,
        "longitude": -69.8206,
        "type": "село"
      },
      {
        "name": "Белеврен",
        "latitude": 42.0923,
        "longitude": 27.1769,
        "type": "село"
      },
      {
        "name": "Белила",
        "latitude": 42.3311,
        "longitude": 27.1043,
        "type": "село"
      },
      {
        "name": "Белодол",
        "latitude": 42.7214,
        "longitude": 27.4522,
        "type": "село"
      },
      {
        "name": "Бероново",
        "latitude": 42.8283,
        "longitude": 26.6995,
        "type": "село"
      },
      {
        "name": "Билка",
        "latitude": 42.9363,
        "longitude": 27.2323,
        "type": "село"
      },
      {
        "name": "Бистрец",
        "latitude": 42.314,
        "longitude": 27.0154,
        "type": "село"
      },
      {
        "name": "Близнак",
        "latitude": 42.1596,
        "longitude": 27.305,
        "type": "село"
      },
      {
        "name": "Богданово",
        "latitude": 42.2331,
        "longitude": 27.2613,
        "type": "село"
      },
      {
        "name": "Босилково",
        "latitude": 42.822,
        "longitude": 27.0109,
        "type": "село"
      },
      {
        "name": "Братово",
        "latitude": 42.5045,
        "longitude": 27.304,
        "type": "село"
      },
      {
        "name": "Бродилово",
        "latitude": 42.0877,
        "longitude": 27.8576,
        "type": "село"
      },
      {
        "name": "Бръшлян",
        "latitude": 42.0464,
        "longitude": 27.4281,
        "type": "село"
      },
      {
        "name": "Брястовец",
        "latitude": 42.6734,
        "longitude": 27.4652,
        "type": "село"
      },
      {
        "name": "Бургас",
        "latitude": 42.5048,
        "longitude": 27.4626,
        "type": "град"
      },
      {
        "name": "Българи",
        "latitude": 42.0879,
        "longitude": 27.7294,
        "type": "село"
      },
      {
        "name": "Българово",
        "latitude": 42.6219,
        "longitude": 27.3065,
        "type": "град"
      },
      {
        "name": "Бяла вода",
        "latitude": 42.1655,
        "longitude": 27.4552,
        "type": "село"
      },
      {
        "name": "Варвара",
        "latitude": 42.12,
        "longitude": 27.9003,
        "type": "село"
      },
      {
        "name": "Варовник",
        "latitude": 42.2172,
        "longitude": 27.2341,
        "type": "село"
      },
      {
        "name": "Ведрово",
        "latitude": 42.837,
        "longitude": 26.98,
        "type": "село"
      },
      {
        "name": "Везенково",
        "latitude": 42.8534,
        "longitude": 26.7062,
        "type": "село"
      },
      {
        "name": "Велика",
        "latitude": 42.1834,
        "longitude": 27.78,
        "type": "село"
      },
      {
        "name": "Велислав",
        "latitude": 42.8643,
        "longitude": 26.7613,
        "type": "село"
      },
      {
        "name": "Венец",
        "latitude": 42.6401,
        "longitude": 26.8079,
        "type": "село"
      },
      {
        "name": "Веселие",
        "latitude": 42.3267,
        "longitude": 27.6218,
        "type": "село"
      },
      {
        "name": "Ветрен",
        "latitude": 42.6043,
        "longitude": 27.3847,
        "type": "село"
      },
      {
        "name": "Визица",
        "latitude": 42.1239,
        "longitude": 27.6061,
        "type": "село"
      },
      {
        "name": "Винарско",
        "latitude": 42.6041,
        "longitude": 27.2002,
        "type": "село"
      },
      {
        "name": "Вишна",
        "latitude": 42.8935,
        "longitude": 27.1873,
        "type": "село"
      },
      {
        "name": "Вратица",
        "latitude": 42.5876,
        "longitude": 27.1609,
        "type": "село"
      },
      {
        "name": "Вресово",
        "latitude": 42.8123,
        "longitude": 27.1984,
        "type": "село"
      },
      {
        "name": "Вълчаново",
        "latitude": 42.2613,
        "longitude": 27.0672,
        "type": "село"
      },
      {
        "name": "Вълчин",
        "latitude": 42.7301,
        "longitude": 26.8959,
        "type": "село"
      },
      {
        "name": "Вършило",
        "latitude": 42.2596,
        "longitude": 27.3786,
        "type": "село"
      },
      {
        "name": "Габерово",
        "latitude": 42.697,
        "longitude": 27.5265,
        "type": "село"
      },
      {
        "name": "Габър",
        "latitude": 42.3108,
        "longitude": 27.3544,
        "type": "село"
      },
      {
        "name": "Глумче",
        "latitude": 42.6988,
        "longitude": 27.025,
        "type": "село"
      },
      {
        "name": "Голямо Буково",
        "latitude": 42.1908,
        "longitude": 27.1839,
        "type": "село"
      },
      {
        "name": "Горица",
        "latitude": 42.791,
        "longitude": 27.5295,
        "type": "село"
      },
      {
        "name": "Горно Ябълково",
        "latitude": 42.1114,
        "longitude": 27.1003,
        "type": "село"
      },
      {
        "name": "Горово",
        "latitude": 42.7399,
        "longitude": 26.8344,
        "type": "село"
      },
      {
        "name": "Граматиково",
        "latitude": 42.0667,
        "longitude": 27.65,
        "type": "село"
      },
      {
        "name": "Гранитец",
        "latitude": 42.2444,
        "longitude": 26.9601,
        "type": "село"
      },
      {
        "name": "Граничар",
        "latitude": 42.1348,
        "longitude": 27.2432,
        "type": "село"
      },
      {
        "name": "Грозден",
        "latitude": 42.7216,
        "longitude": 26.7539,
        "type": "село"
      },
      {
        "name": "Гълъбец",
        "latitude": 42.7709,
        "longitude": 27.5302,
        "type": "село"
      },
      {
        "name": "Гюльовца",
        "latitude": 42.7647,
        "longitude": 27.6022,
        "type": "село"
      },
      {
        "name": "Дебелт",
        "latitude": 42.3918,
        "longitude": 27.2674,
        "type": "село"
      },
      {
        "name": "Деветак",
        "latitude": 42.5746,
        "longitude": 26.8239,
        "type": "село"
      },
      {
        "name": "Деветинци",
        "latitude": 42.5958,
        "longitude": 26.8269,
        "type": "село"
      },
      {
        "name": "Детелина",
        "latitude": 42.5592,
        "longitude": 27.0354,
        "type": "село"
      },
      {
        "name": "Димчево",
        "latitude": 42.405,
        "longitude": 27.4096,
        "type": "село"
      },
      {
        "name": "Добра поляна",
        "latitude": 42.838,
        "longitude": 27.3128,
        "type": "село"
      },
      {
        "name": "Добриново",
        "latitude": 42.4754,
        "longitude": 26.9111,
        "type": "село"
      },
      {
        "name": "Добромир",
        "latitude": 42.9534,
        "longitude": 27.2876,
        "type": "село"
      },
      {
        "name": "Долно Ябълково",
        "latitude": 42.1357,
        "longitude": 27.1137,
        "type": "село"
      },
      {
        "name": "Драганово",
        "latitude": 43.223,
        "longitude": 25.7468,
        "type": "село"
      },
      {
        "name": "Драганци",
        "latitude": 42.5668,
        "longitude": 26.9829,
        "type": "село"
      },
      {
        "name": "Драгово",
        "latitude": 42.6295,
        "longitude": 27.107,
        "type": "село"
      },
      {
        "name": "Драка",
        "latitude": 42.3651,
        "longitude": 27.019,
        "type": "село"
      },
      {
        "name": "Драчево",
        "latitude": 42.3422,
        "longitude": 27.2553,
        "type": "село"
      },
      {
        "name": "Дропла",
        "latitude": 42.9105,
        "longitude": 27.1992,
        "type": "село"
      },
      {
        "name": "Дрянковец",
        "latitude": 42.6873,
        "longitude": 27.3734,
        "type": "село"
      },
      {
        "name": "Дъбник",
        "latitude": 42.6881,
        "longitude": 27.5043,
        "type": "село"
      },
      {
        "name": "Дъбовица",
        "latitude": 42.8082,
        "longitude": 26.6295,
        "type": "село"
      },
      {
        "name": "Дъскотна",
        "latitude": 42.8802,
        "longitude": 27.1907,
        "type": "село"
      },
      {
        "name": "Дюлево",
        "latitude": 42.3958,
        "longitude": 27.1634,
        "type": "село"
      },
      {
        "name": "Дюля",
        "latitude": 42.9135,
        "longitude": 27.1232,
        "type": "село"
      },
      {
        "name": "Евренозово",
        "latitude": 42.1325,
        "longitude": 27.3413,
        "type": "село"
      },
      {
        "name": "Екзарх Антимово",
        "latitude": 42.5358,
        "longitude": 26.9756,
        "type": "село"
      },
      {
        "name": "Емона",
        "latitude": 42.7138,
        "longitude": 27.8845,
        "type": "село"
      },
      {
        "name": "Есен",
        "latitude": 42.8267,
        "longitude": 26.781,
        "type": "село"
      },
      {
        "name": "Железник",
        "latitude": 44.7189,
        "longitude": 20.3761,
        "type": "село"
      },
      {
        "name": "Желязово",
        "latitude": 42.4801,
        "longitude": 27.1383,
        "type": "село"
      },
      {
        "name": "Житосвят",
        "latitude": 42.4629,
        "longitude": 26.9747,
        "type": "село"
      },
      {
        "name": "Заберново",
        "latitude": 42.102,
        "longitude": 27.5621,
        "type": "село"
      },
      {
        "name": "Завет",
        "latitude": 43.7633,
        "longitude": 26.679,
        "type": "село"
      },
      {
        "name": "Загорци",
        "latitude": 42.3937,
        "longitude": 27.0575,
        "type": "село"
      },
      {
        "name": "Заимчево",
        "latitude": 42.895,
        "longitude": 27.3018,
        "type": "село"
      },
      {
        "name": "Зайчар",
        "latitude": 42.7781,
        "longitude": 27.1698,
        "type": "село"
      },
      {
        "name": "Звезда",
        "latitude": 42.4955,
        "longitude": 27.4799,
        "type": "село"
      },
      {
        "name": "Звездец",
        "latitude": 42.1092,
        "longitude": 27.4172,
        "type": "село"
      },
      {
        "name": "Зетьово",
        "latitude": 42.7574,
        "longitude": 27.2265,
        "type": "село"
      },
      {
        "name": "Зидарово",
        "latitude": 42.3273,
        "longitude": 27.4026,
        "type": "село"
      },
      {
        "name": "Зимен",
        "latitude": 42.7357,
        "longitude": 27.0364,
        "type": "село"
      },
      {
        "name": "Зорница",
        "latitude": 42.5164,
        "longitude": 27.4651,
        "type": "село"
      },
      {
        "name": "Извор",
        "latitude": 42.3532,
        "longitude": 27.4613,
        "type": "село"
      },
      {
        "name": "Изворище",
        "latitude": 42.6569,
        "longitude": 27.4427,
        "type": "село"
      },
      {
        "name": "Изгрев",
        "latitude": 42.5253,
        "longitude": 27.4589,
        "type": "село"
      },
      {
        "name": "Индже войвода",
        "latitude": 42.223,
        "longitude": 27.4197,
        "type": "село"
      },
      {
        "name": "Искра",
        "latitude": 42.682,
        "longitude": 26.8778,
        "type": "село"
      },
      {
        "name": "Каблешково",
        "latitude": 42.6584,
        "longitude": 27.5707,
        "type": "град"
      },
      {
        "name": "Калово",
        "latitude": 42.1248,
        "longitude": 27.5343,
        "type": "село"
      },
      {
        "name": "Каменар",
        "latitude": 42.6252,
        "longitude": 27.5727,
        "type": "село"
      },
      {
        "name": "Камено",
        "latitude": 42.5735,
        "longitude": 27.295,
        "type": "град"
      },
      {
        "name": "Каменско",
        "latitude": 42.9114,
        "longitude": 26.8037,
        "type": "село"
      },
      {
        "name": "Каменяк",
        "latitude": 42.8674,
        "longitude": 27.2977,
        "type": "село"
      },
      {
        "name": "Камчия",
        "latitude": 43.0291,
        "longitude": 27.6605,
        "type": "село"
      },
      {
        "name": "Каравельово",
        "latitude": 42.9298,
        "longitude": 27.1505,
        "type": "село"
      },
      {
        "name": "Карагеоргиево",
        "latitude": 42.7353,
        "longitude": 27.186,
        "type": "село"
      },
      {
        "name": "Караново",
        "latitude": 42.5127,
        "longitude": 25.9085,
        "type": "село"
      },
      {
        "name": "Карнобат",
        "latitude": 42.6511,
        "longitude": 26.9804,
        "type": "град"
      },
      {
        "name": "Кирово",
        "latitude": 45.2203,
        "longitude": 35.8459,
        "type": "село"
      },
      {
        "name": "Китен",
        "latitude": 42.2343,
        "longitude": 27.7702,
        "type": "село"
      },
      {
        "name": "Китка",
        "latitude": 42.8417,
        "longitude": 27.1889,
        "type": "село"
      },
      {
        "name": "Кликач",
        "latitude": 42.7043,
        "longitude": 27.0591,
        "type": "село"
      },
      {
        "name": "Климаш",
        "latitude": 42.7788,
        "longitude": 26.9058,
        "type": "село"
      },
      {
        "name": "Козаре",
        "latitude": 42.6076,
        "longitude": 27.0472,
        "type": "село"
      },
      {
        "name": "Козичино",
        "latitude": 42.838,
        "longitude": 27.5731,
        "type": "село"
      },
      {
        "name": "Козница",
        "latitude": 42.8756,
        "longitude": 27.682,
        "type": "село"
      },
      {
        "name": "Кондолово",
        "latitude": 42.0932,
        "longitude": 27.6815,
        "type": "село"
      },
      {
        "name": "Константиново",
        "latitude": 42.4097,
        "longitude": 27.3152,
        "type": "село"
      },
      {
        "name": "Косовец",
        "latitude": 42.7549,
        "longitude": 27.4382,
        "type": "село"
      },
      {
        "name": "Костен",
        "latitude": 42.7823,
        "longitude": 26.9554,
        "type": "село"
      },
      {
        "name": "Кости",
        "latitude": 42.058,
        "longitude": 27.78,
        "type": "село"
      },
      {
        "name": "Кошарица",
        "latitude": 42.7521,
        "longitude": 27.6912,
        "type": "село"
      },
      {
        "name": "Крумово градище",
        "latitude": 42.6106,
        "longitude": 26.9288,
        "type": "село"
      },
      {
        "name": "Крушевец",
        "latitude": 42.2729,
        "longitude": 27.4848,
        "type": "село"
      },
      {
        "name": "Крушово",
        "latitude": 42.5429,
        "longitude": 27.0578,
        "type": "село"
      },
      {
        "name": "Кръстина",
        "latitude": 42.5845,
        "longitude": 27.2383,
        "type": "село"
      },
      {
        "name": "Кубадин",
        "latitude": 42.3035,
        "longitude": 26.9444,
        "type": "село"
      },
      {
        "name": "Ливада",
        "latitude": 42.4454,
        "longitude": 27.2187,
        "type": "село"
      },
      {
        "name": "Листец",
        "latitude": 42.866,
        "longitude": 27.1333,
        "type": "село"
      },
      {
        "name": "Лозарево",
        "latitude": 42.7708,
        "longitude": 26.8779,
        "type": "село"
      },
      {
        "name": "Лозенец",
        "latitude": 42.2083,
        "longitude": 27.8066,
        "type": "село"
      },
      {
        "name": "Лозица",
        "latitude": 42.7302,
        "longitude": 26.7817,
        "type": "село"
      },
      {
        "name": "Лъка",
        "latitude": 42.6231,
        "longitude": 27.5373,
        "type": "село"
      },
      {
        "name": "Люляково",
        "latitude": 42.8734,
        "longitude": 27.0803,
        "type": "село"
      },
      {
        "name": "Лясково",
        "latitude": 42.7287,
        "longitude": 27.2897,
        "type": "село"
      },
      {
        "name": "Малина",
        "latitude": 42.4151,
        "longitude": 27.0001,
        "type": "село"
      },
      {
        "name": "Малка поляна",
        "latitude": 42.6418,
        "longitude": 27.2419,
        "type": "село"
      },
      {
        "name": "Малко Търново",
        "latitude": 41.9798,
        "longitude": 27.525,
        "type": "град"
      },
      {
        "name": "Манолич",
        "latitude": 42.8698,
        "longitude": 26.8021,
        "type": "село"
      },
      {
        "name": "Маринка",
        "latitude": 42.4015,
        "longitude": 27.482,
        "type": "село"
      },
      {
        "name": "Медово",
        "latitude": 42.6954,
        "longitude": 27.5713,
        "type": "село"
      },
      {
        "name": "Миролюбово",
        "latitude": 42.6447,
        "longitude": 27.3643,
        "type": "село"
      },
      {
        "name": "Младежко",
        "latitude": 42.1537,
        "longitude": 27.3712,
        "type": "село"
      },
      {
        "name": "Момина църква",
        "latitude": 42.1429,
        "longitude": 27.0141,
        "type": "село"
      },
      {
        "name": "Мрежичко",
        "latitude": 42.863,
        "longitude": 27.4099,
        "type": "село"
      },
      {
        "name": "Мъглен",
        "latitude": 42.7294,
        "longitude": 27.373,
        "type": "село"
      },
      {
        "name": "Мъдрино",
        "latitude": 42.7098,
        "longitude": 26.9,
        "type": "село"
      },
      {
        "name": "Невестино",
        "latitude": 42.7311,
        "longitude": 26.9426,
        "type": "село"
      },
      {
        "name": "Несебър",
        "latitude": 42.6601,
        "longitude": 27.7206,
        "type": "град"
      },
      {
        "name": "Ново Паничарево",
        "latitude": 42.2844,
        "longitude": 27.5573,
        "type": "село"
      },
      {
        "name": "Обзор",
        "latitude": 42.8175,
        "longitude": 27.88,
        "type": "град"
      },
      {
        "name": "Огнен",
        "latitude": 42.6937,
        "longitude": 26.8196,
        "type": "село"
      },
      {
        "name": "Оризаре",
        "latitude": 42.7509,
        "longitude": 27.6205,
        "type": "село"
      },
      {
        "name": "Орлинци",
        "latitude": 42.4333,
        "longitude": 27.0334,
        "type": "село"
      },
      {
        "name": "Паницово",
        "latitude": 42.8515,
        "longitude": 27.6633,
        "type": "село"
      },
      {
        "name": "Пещерско",
        "latitude": 42.743,
        "longitude": 27.3472,
        "type": "село"
      },
      {
        "name": "Пирне",
        "latitude": 42.6778,
        "longitude": 27.1965,
        "type": "село"
      },
      {
        "name": "Писменово",
        "latitude": 42.2173,
        "longitude": 27.6736,
        "type": "село"
      },
      {
        "name": "Планиница",
        "latitude": 42.8913,
        "longitude": 27.1562,
        "type": "село"
      },
      {
        "name": "Подвис",
        "latitude": 42.8387,
        "longitude": 26.8468,
        "type": "село"
      },
      {
        "name": "Подгорец",
        "latitude": 42.8359,
        "longitude": 27.4038,
        "type": "село"
      },
      {
        "name": "Полски извор",
        "latitude": 42.4496,
        "longitude": 27.29,
        "type": "село"
      },
      {
        "name": "Поляново",
        "latitude": 41.9719,
        "longitude": 25.8181,
        "type": "село"
      },
      {
        "name": "Поморие",
        "latitude": 42.5681,
        "longitude": 27.6156,
        "type": "град"
      },
      {
        "name": "Порой",
        "latitude": 42.7498,
        "longitude": 27.5522,
        "type": "село"
      },
      {
        "name": "Преображенци",
        "latitude": 42.7973,
        "longitude": 27.33,
        "type": "село"
      },
      {
        "name": "Прилеп",
        "latitude": 42.85,
        "longitude": 26.9303,
        "type": "село"
      },
      {
        "name": "Приморско",
        "latitude": 42.2684,
        "longitude": 27.7533,
        "type": "град"
      },
      {
        "name": "Припек",
        "latitude": 42.847,
        "longitude": 27.3998,
        "type": "село"
      },
      {
        "name": "Присад",
        "latitude": 42.3757,
        "longitude": 27.3822,
        "type": "село"
      },
      {
        "name": "Приселци",
        "latitude": 42.824,
        "longitude": 27.7986,
        "type": "село"
      },
      {
        "name": "Просеник",
        "latitude": 42.7985,
        "longitude": 27.4509,
        "type": "село"
      },
      {
        "name": "Проход",
        "latitude": 42.3309,
        "longitude": 27.0604,
        "type": "село"
      },
      {
        "name": "Пчелин",
        "latitude": 42.8847,
        "longitude": 26.7733,
        "type": "село"
      },
      {
        "name": "Пънчево",
        "latitude": 42.2757,
        "longitude": 27.156,
        "type": "село"
      },
      {
        "name": "Равадиново",
        "latitude": 42.3837,
        "longitude": 27.6672,
        "type": "село"
      },
      {
        "name": "Равда",
        "latitude": 42.6443,
        "longitude": 27.6781,
        "type": "село"
      },
      {
        "name": "Равна гора",
        "latitude": 42.3623,
        "longitude": 27.5395,
        "type": "село"
      },
      {
        "name": "Равнец",
        "latitude": 42.5142,
        "longitude": 27.2412,
        "type": "село"
      },
      {
        "name": "Радойново",
        "latitude": 42.376,
        "longitude": 26.9853,
        "type": "село"
      },
      {
        "name": "Разбойна",
        "latitude": 43.222,
        "longitude": 26.5604,
        "type": "село"
      },
      {
        "name": "Раклиново",
        "latitude": 42.7653,
        "longitude": 27.0507,
        "type": "село"
      },
      {
        "name": "Раклица",
        "latitude": 42.7752,
        "longitude": 27.0069,
        "type": "село"
      },
      {
        "name": "Раковсково",
        "latitude": 42.8347,
        "longitude": 27.7339,
        "type": "село"
      },
      {
        "name": "Резово",
        "latitude": 41.9849,
        "longitude": 28.0299,
        "type": "село"
      },
      {
        "name": "Речица",
        "latitude": 42.8829,
        "longitude": 27.2423,
        "type": "село"
      },
      {
        "name": "Рожден",
        "latitude": 42.8667,
        "longitude": 27.4494,
        "type": "село"
      },
      {
        "name": "Росен",
        "latitude": 42.382,
        "longitude": 27.5665,
        "type": "село"
      },
      {
        "name": "Росеново",
        "latitude": 42.2927,
        "longitude": 27.2287,
        "type": "село"
      },
      {
        "name": "Рудина",
        "latitude": 42.845,
        "longitude": 27.4271,
        "type": "село"
      },
      {
        "name": "Рудник",
        "latitude": 42.6264,
        "longitude": 27.4887,
        "type": "село"
      },
      {
        "name": "Руен",
        "latitude": 42.8001,
        "longitude": 27.2822,
        "type": "село"
      },
      {
        "name": "Рупча",
        "latitude": 42.8903,
        "longitude": 27.091,
        "type": "село"
      },
      {
        "name": "Русокастро",
        "latitude": 42.4655,
        "longitude": 27.1867,
        "type": "село"
      },
      {
        "name": "Ръжица",
        "latitude": 42.7826,
        "longitude": 27.3975,
        "type": "село"
      },
      {
        "name": "Садово",
        "latitude": 42.8538,
        "longitude": 26.6364,
        "type": "село"
      },
      {
        "name": "Сан-Стефано",
        "latitude": 40.9776,
        "longitude": 28.8189,
        "type": "село"
      },
      {
        "name": "Свети Влас",
        "latitude": 42.7134,
        "longitude": 27.7588,
        "type": "село"
      },
      {
        "name": "Светлина",
        "latitude": 42.3719,
        "longitude": 27.1039,
        "type": "село"
      },
      {
        "name": "Свобода",
        "latitude": 42.5708,
        "longitude": 27.3179,
        "type": "село"
      },
      {
        "name": "Сигмен",
        "latitude": 42.71,
        "longitude": 26.9733,
        "type": "село"
      },
      {
        "name": "Синеморец",
        "latitude": 42.0604,
        "longitude": 27.9757,
        "type": "село"
      },
      {
        "name": "Сини рид",
        "latitude": 42.8224,
        "longitude": 27.4313,
        "type": "село"
      },
      {
        "name": "Синьо Камене",
        "latitude": 42.2587,
        "longitude": 26.9827,
        "type": "село"
      },
      {
        "name": "Скала",
        "latitude": 40.0643,
        "longitude": -75.5344,
        "type": "село"
      },
      {
        "name": "Скалак",
        "latitude": 42.809,
        "longitude": 27.0916,
        "type": "село"
      },
      {
        "name": "Славянци",
        "latitude": 42.7651,
        "longitude": 26.731,
        "type": "село"
      },
      {
        "name": "Сливарово",
        "latitude": 41.9678,
        "longitude": 27.6645,
        "type": "село"
      },
      {
        "name": "Сливово",
        "latitude": 42.2336,
        "longitude": 27.0151,
        "type": "село"
      },
      {
        "name": "Слънчев бряг",
        "latitude": 42.693056,
        "longitude": 27.708333,
        "type": "курорт"
      },
      {
        "name": "Смолник",
        "latitude": 42.5298,
        "longitude": 26.9285,
        "type": "село"
      },
      {
        "name": "Снежа",
        "latitude": 42.8959,
        "longitude": 27.273,
        "type": "село"
      },
      {
        "name": "Снягово",
        "latitude": 42.8459,
        "longitude": 27.2782,
        "type": "село"
      },
      {
        "name": "Созопол",
        "latitude": 42.4173,
        "longitude": 27.6962,
        "type": "град"
      },
      {
        "name": "Соколец",
        "latitude": 42.9419,
        "longitude": 27.1792,
        "type": "село"
      },
      {
        "name": "Соколово",
        "latitude": 42.6602,
        "longitude": 27.0706,
        "type": "село"
      },
      {
        "name": "Средец",
        "latitude": 42.3452,
        "longitude": 27.1812,
        "type": "град"
      },
      {
        "name": "Средна махала",
        "latitude": 42.8434,
        "longitude": 27.3273,
        "type": "село"
      },
      {
        "name": "Стоилово",
        "latitude": 42.0387,
        "longitude": 27.5174,
        "type": "село"
      },
      {
        "name": "Страцин",
        "latitude": 42.1512,
        "longitude": 22.0327,
        "type": "село"
      },
      {
        "name": "Струя",
        "latitude": 42.9611,
        "longitude": 27.2626,
        "type": "село"
      },
      {
        "name": "Сунгурларе",
        "latitude": 42.7631,
        "longitude": 26.7735,
        "type": "град"
      },
      {
        "name": "Суходол",
        "latitude": 42.4394,
        "longitude": 27.0822,
        "type": "село"
      },
      {
        "name": "Съдиево",
        "latitude": 42.6666,
        "longitude": 27.3201,
        "type": "село"
      },
      {
        "name": "Съединение",
        "latitude": 42.8749,
        "longitude": 27.0255,
        "type": "село"
      },
      {
        "name": "Сърнево",
        "latitude": 42.476,
        "longitude": 27.0919,
        "type": "село"
      },
      {
        "name": "Твърдица",
        "latitude": 42.7016,
        "longitude": 25.896,
        "type": "село"
      },
      {
        "name": "Терзийско",
        "latitude": 42.6817,
        "longitude": 26.7658,
        "type": "село"
      },
      {
        "name": "Тополица",
        "latitude": 42.7347,
        "longitude": 27.1207,
        "type": "село"
      },
      {
        "name": "Топчийско",
        "latitude": 42.8515,
        "longitude": 27.345,
        "type": "село"
      },
      {
        "name": "Тракийци",
        "latitude": 42.166,
        "longitude": 27.2514,
        "type": "село"
      },
      {
        "name": "Трояново",
        "latitude": 42.5546,
        "longitude": 27.1451,
        "type": "село"
      },
      {
        "name": "Трънак",
        "latitude": 42.9441,
        "longitude": 27.2113,
        "type": "село"
      },
      {
        "name": "Тръстиково",
        "latitude": 42.4273,
        "longitude": 27.2615,
        "type": "село"
      },
      {
        "name": "Тънково",
        "latitude": 42.694,
        "longitude": 27.6497,
        "type": "село"
      },
      {
        "name": "Фазаново",
        "latitude": 42.2001,
        "longitude": 27.7219,
        "type": "село"
      },
      {
        "name": "Факия",
        "latitude": 42.1901,
        "longitude": 27.0857,
        "type": "село"
      },
      {
        "name": "Хаджиите",
        "latitude": 42.6097,
        "longitude": 27.0799,
        "type": "село"
      },
      {
        "name": "Царево",
        "latitude": 42.1696,
        "longitude": 27.8454,
        "type": "град"
      },
      {
        "name": "Церковски",
        "latitude": 42.6106,
        "longitude": 26.8742,
        "type": "село"
      },
      {
        "name": "Череша",
        "latitude": 42.8162,
        "longitude": 27.1299,
        "type": "село"
      },
      {
        "name": "Черково",
        "latitude": 42.4811,
        "longitude": 27.0456,
        "type": "село"
      },
      {
        "name": "Черна могила",
        "latitude": 42.7495,
        "longitude": 27.397,
        "type": "село"
      },
      {
        "name": "Черни връх",
        "latitude": 42.4455,
        "longitude": 27.3435,
        "type": "село"
      },
      {
        "name": "Черница",
        "latitude": 42.7715,
        "longitude": 26.829,
        "type": "село"
      },
      {
        "name": "Черно море",
        "latitude": 42.6153,
        "longitude": 27.4915,
        "type": "село"
      },
      {
        "name": "Черноград",
        "latitude": 42.7108,
        "longitude": 27.0973,
        "type": "село"
      },
      {
        "name": "Черноморец",
        "latitude": 42.4443,
        "longitude": 27.6383,
        "type": "село"
      },
      {
        "name": "Чубра",
        "latitude": 42.7554,
        "longitude": 26.7064,
        "type": "село"
      },
      {
        "name": "Чукарка",
        "latitude": 42.6484,
        "longitude": 27.1172,
        "type": "село"
      },
      {
        "name": "Шиварово",
        "latitude": 42.8409,
        "longitude": 27.1746,
        "type": "село"
      },
      {
        "name": "Ябълчево",
        "latitude": 42.7944,
        "longitude": 27.2544,
        "type": "село"
      },
      {
        "name": "Ясеново",
        "latitude": 42.897,
        "longitude": 27.2356,
        "type": "село"
      },
      {
        "name": "Ясна поляна",
        "latitude": 42.2819,
        "longitude": 27.6134,
        "type": "село"
      }
    ]
  },
  {
    "region": "Област Варна",
    "settlements": [
      {
        "name": "Аврен",
        "latitude": 43.1127,
        "longitude": 27.6672,
        "type": "село"
      },
      {
        "name": "Аксаково",
        "latitude": 43.259,
        "longitude": 27.8174,
        "type": "село"
      },
      {
        "name": "Арковна",
        "latitude": 43.0367,
        "longitude": 27.1995,
        "type": "село"
      },
      {
        "name": "Аспарухово",
        "latitude": 43.1795,
        "longitude": 27.8888,
        "type": "село"
      },
      {
        "name": "Баново",
        "latitude": 43.2645,
        "longitude": 27.6776,
        "type": "село"
      },
      {
        "name": "Белоградец",
        "latitude": 43.3522,
        "longitude": 27.3292,
        "type": "село"
      },
      {
        "name": "Белослав",
        "latitude": 43.1871,
        "longitude": 27.7042,
        "type": "град"
      },
      {
        "name": "Бенковски",
        "latitude": 43.1177,
        "longitude": 27.7844,
        "type": "село"
      },
      {
        "name": "Близнаци",
        "latitude": 43.0609,
        "longitude": 27.8681,
        "type": "село"
      },
      {
        "name": "Блъсково",
        "latitude": 43.1215,
        "longitude": 27.3294,
        "type": "село"
      },
      {
        "name": "Бозвелийско",
        "latitude": 43.1045,
        "longitude": 27.4755,
        "type": "село"
      },
      {
        "name": "Болярци",
        "latitude": 43.0705,
        "longitude": 27.7996,
        "type": "село"
      },
      {
        "name": "Боряна",
        "latitude": 43.0526,
        "longitude": 27.2781,
        "type": "село"
      },
      {
        "name": "Ботево",
        "latitude": 43.4292,
        "longitude": 27.7203,
        "type": "село"
      },
      {
        "name": "Бояна",
        "latitude": 43.4357,
        "longitude": 27.6502,
        "type": "село"
      },
      {
        "name": "Брестак",
        "latitude": 43.4599,
        "longitude": 27.539,
        "type": "село"
      },
      {
        "name": "Булаир",
        "latitude": 42.8965,
        "longitude": 27.4491,
        "type": "село"
      },
      {
        "name": "Бърдарево",
        "latitude": 42.923,
        "longitude": 27.598,
        "type": "село"
      },
      {
        "name": "Бързица",
        "latitude": 43.0731,
        "longitude": 27.5269,
        "type": "село"
      },
      {
        "name": "Бяла",
        "latitude": 42.8799,
        "longitude": 27.8811,
        "type": "град"
      },
      {
        "name": "Варна",
        "latitude": 43.2141,
        "longitude": 27.9147,
        "type": "град"
      },
      {
        "name": "Величково",
        "latitude": 43.0466,
        "longitude": 27.4444,
        "type": "село"
      },
      {
        "name": "Венелин",
        "latitude": 43.0431,
        "longitude": 27.6715,
        "type": "село"
      },
      {
        "name": "Венчан",
        "latitude": 43.2352,
        "longitude": 27.3885,
        "type": "село"
      },
      {
        "name": "Ветрино",
        "latitude": 43.3155,
        "longitude": 27.4337,
        "type": "село"
      },
      {
        "name": "Водица",
        "latitude": 43.3688,
        "longitude": 27.7355,
        "type": "село"
      },
      {
        "name": "Войводино",
        "latitude": 43.4054,
        "longitude": 27.6153,
        "type": "село"
      },
      {
        "name": "Въглен",
        "latitude": 43.2952,
        "longitude": 27.8476,
        "type": "село"
      },
      {
        "name": "Вълчи дол",
        "latitude": 43.4055,
        "longitude": 27.5512,
        "type": "град"
      },
      {
        "name": "Габърница",
        "latitude": 43.2453,
        "longitude": 27.4926,
        "type": "село"
      },
      {
        "name": "Генерал Кантарджиево",
        "latitude": 43.3558,
        "longitude": 27.9822,
        "type": "село"
      },
      {
        "name": "Генерал Киселово",
        "latitude": 43.4631,
        "longitude": 27.5997,
        "type": "село"
      },
      {
        "name": "Генерал Колево",
        "latitude": 43.5218,
        "longitude": 27.366,
        "type": "село"
      },
      {
        "name": "Голица",
        "latitude": 42.9146,
        "longitude": 27.5474,
        "type": "село"
      },
      {
        "name": "Горен чифлик",
        "latitude": 43.0138,
        "longitude": 27.6305,
        "type": "село"
      },
      {
        "name": "Горица",
        "latitude": 42.9101,
        "longitude": 27.8401,
        "type": "село"
      },
      {
        "name": "Господиново",
        "latitude": 42.8976,
        "longitude": 27.7694,
        "type": "село"
      },
      {
        "name": "Градинарово",
        "latitude": 43.1424,
        "longitude": 27.2797,
        "type": "село"
      },
      {
        "name": "Гроздьово",
        "latitude": 43.0292,
        "longitude": 27.5404,
        "type": "село"
      },
      {
        "name": "Девня",
        "latitude": 43.2197,
        "longitude": 27.5584,
        "type": "град"
      },
      {
        "name": "Детелина",
        "latitude": 42.9909,
        "longitude": 27.7717,
        "type": "село"
      },
      {
        "name": "Добри дол",
        "latitude": 43.0714,
        "longitude": 27.753,
        "type": "село"
      },
      {
        "name": "Добрина",
        "latitude": 43.1801,
        "longitude": 27.4642,
        "type": "село"
      },
      {
        "name": "Доброглед",
        "latitude": 43.2672,
        "longitude": 27.7646,
        "type": "село"
      },
      {
        "name": "Доброплодно",
        "latitude": 43.3983,
        "longitude": 27.3744,
        "type": "село"
      },
      {
        "name": "Добротич",
        "latitude": 43.3948,
        "longitude": 27.4215,
        "type": "село"
      },
      {
        "name": "Долище",
        "latitude": 43.3386,
        "longitude": 27.8918,
        "type": "село"
      },
      {
        "name": "Долни чифлик",
        "latitude": 42.9937,
        "longitude": 27.717,
        "type": "град"
      },
      {
        "name": "Дръндар",
        "latitude": 43.362,
        "longitude": 27.6296,
        "type": "село"
      },
      {
        "name": "Дъбравино",
        "latitude": 43.052,
        "longitude": 27.5948,
        "type": "село"
      },
      {
        "name": "Дългопол",
        "latitude": 43.0497,
        "longitude": 27.3464,
        "type": "град"
      },
      {
        "name": "Дюлино",
        "latitude": 42.86,
        "longitude": 27.7255,
        "type": "село"
      },
      {
        "name": "Езерово",
        "latitude": 43.1996,
        "longitude": 27.7689,
        "type": "село"
      },
      {
        "name": "Есеница",
        "latitude": 43.4394,
        "longitude": 27.3954,
        "type": "село"
      },
      {
        "name": "Житница",
        "latitude": 43.1262,
        "longitude": 27.5247,
        "type": "село"
      },
      {
        "name": "Засмяно",
        "latitude": 43.3887,
        "longitude": 27.6888,
        "type": "село"
      },
      {
        "name": "Звездица",
        "latitude": 43.1562,
        "longitude": 27.8428,
        "type": "село"
      },
      {
        "name": "Звънец",
        "latitude": 43.4939,
        "longitude": 27.5971,
        "type": "село"
      },
      {
        "name": "Здравец",
        "latitude": 43.1264,
        "longitude": 27.7418,
        "type": "село"
      },
      {
        "name": "Златина",
        "latitude": 43.2357,
        "longitude": 27.4182,
        "type": "село"
      },
      {
        "name": "Златни Пясъци",
        "latitude": 43.285,
        "longitude": 28.0417,
        "type": "курорт"
      },
      {
        "name": "Зорница",
        "latitude": 43.3293,
        "longitude": 27.7316,
        "type": "село"
      },
      {
        "name": "Игнатиево",
        "latitude": 43.2481,
        "longitude": 27.779,
        "type": "село"
      },
      {
        "name": "Изворник",
        "latitude": 43.4677,
        "longitude": 27.3595,
        "type": "село"
      },
      {
        "name": "Изворско",
        "latitude": 43.294,
        "longitude": 27.7703,
        "type": "село"
      },
      {
        "name": "Изгрев",
        "latitude": 43.299,
        "longitude": 27.6936,
        "type": "село"
      },
      {
        "name": "Искър",
        "latitude": 43.3892,
        "longitude": 27.4778,
        "type": "село"
      },
      {
        "name": "Казашка река",
        "latitude": 43.0884,
        "longitude": 27.6301,
        "type": "село"
      },
      {
        "name": "Казашко",
        "latitude": 43.1982,
        "longitude": 27.819,
        "type": "село"
      },
      {
        "name": "Калиманци",
        "latitude": 43.2775,
        "longitude": 27.7234,
        "type": "село"
      },
      {
        "name": "Калоян",
        "latitude": 43.4312,
        "longitude": 27.4084,
        "type": "село"
      },
      {
        "name": "Камен дял",
        "latitude": 43.0291,
        "longitude": 27.2595,
        "type": "село"
      },
      {
        "name": "Каменар",
        "latitude": 43.2486,
        "longitude": 27.9086,
        "type": "село"
      },
      {
        "name": "Камчия",
        "latitude": 43.025441,
        "longitude": 27.884152,
        "type": "курорт"
      },
      {
        "name": "Караманите",
        "latitude": 43.4889,
        "longitude": 27.4772,
        "type": "село"
      },
      {
        "name": "Кипра",
        "latitude": 43.2607,
        "longitude": 27.6219,
        "type": "село"
      },
      {
        "name": "Китен",
        "latitude": 43.0864,
        "longitude": 27.3159,
        "type": "село"
      },
      {
        "name": "Китка",
        "latitude": 43.0532,
        "longitude": 27.7759,
        "type": "село"
      },
      {
        "name": "Кичево",
        "latitude": 43.2743,
        "longitude": 27.9607,
        "type": "село"
      },
      {
        "name": "Климентово",
        "latitude": 43.3429,
        "longitude": 27.949,
        "type": "село"
      },
      {
        "name": "Комарево",
        "latitude": 43.1148,
        "longitude": 27.3947,
        "type": "село"
      },
      {
        "name": "Комунари",
        "latitude": 43.01,
        "longitude": 27.2938,
        "type": "село"
      },
      {
        "name": "Константиново",
        "latitude": 43.1603,
        "longitude": 27.7791,
        "type": "село"
      },
      {
        "name": "Кракра",
        "latitude": 43.4169,
        "longitude": 27.4782,
        "type": "село"
      },
      {
        "name": "Красимир",
        "latitude": 43.0348,
        "longitude": 27.3076,
        "type": "село"
      },
      {
        "name": "Кривини",
        "latitude": 42.9512,
        "longitude": 27.6711,
        "type": "село"
      },
      {
        "name": "Кривня",
        "latitude": 43.1946,
        "longitude": 27.3975,
        "type": "село"
      },
      {
        "name": "Крумово",
        "latitude": 43.3903,
        "longitude": 27.7835,
        "type": "село"
      },
      {
        "name": "Круша",
        "latitude": 43.0277,
        "longitude": 27.7603,
        "type": "село"
      },
      {
        "name": "Куманово",
        "latitude": 43.2753,
        "longitude": 27.9316,
        "type": "село"
      },
      {
        "name": "Левски",
        "latitude": 43.2225,
        "longitude": 27.9225,
        "type": "село"
      },
      {
        "name": "Лопушна",
        "latitude": 43.0028,
        "longitude": 27.1843,
        "type": "село"
      },
      {
        "name": "Любен Каравелово",
        "latitude": 43.3478,
        "longitude": 27.768,
        "type": "село"
      },
      {
        "name": "Манастир",
        "latitude": 43.1772,
        "longitude": 27.521,
        "type": "село"
      },
      {
        "name": "Медовец",
        "latitude": 43.0038,
        "longitude": 27.1375,
        "type": "село"
      },
      {
        "name": "Метличина",
        "latitude": 43.4739,
        "longitude": 27.5027,
        "type": "село"
      },
      {
        "name": "Михалич",
        "latitude": 43.4047,
        "longitude": 27.46,
        "type": "село"
      },
      {
        "name": "Млада гвардия",
        "latitude": 43.2905,
        "longitude": 27.3632,
        "type": "село"
      },
      {
        "name": "Момчилово",
        "latitude": 43.363,
        "longitude": 27.4231,
        "type": "село"
      },
      {
        "name": "Невша",
        "latitude": 43.2712,
        "longitude": 27.2992,
        "type": "село"
      },
      {
        "name": "Неново",
        "latitude": 43.2191,
        "longitude": 27.2871,
        "type": "село"
      },
      {
        "name": "Неофит Рилски",
        "latitude": 43.274,
        "longitude": 27.5171,
        "type": "село"
      },
      {
        "name": "Николаевка",
        "latitude": 43.3564,
        "longitude": 27.6677,
        "type": "село"
      },
      {
        "name": "Нова Шипка",
        "latitude": 43.0551,
        "longitude": 27.5253,
        "type": "село"
      },
      {
        "name": "Новаково",
        "latitude": 43.3536,
        "longitude": 27.8299,
        "type": "село"
      },
      {
        "name": "Ново Оряхово",
        "latitude": 42.9868,
        "longitude": 27.8367,
        "type": "село"
      },
      {
        "name": "Оборище",
        "latitude": 43.4488,
        "longitude": 27.6596,
        "type": "село"
      },
      {
        "name": "Овчага",
        "latitude": 43.1668,
        "longitude": 27.3398,
        "type": "село"
      },
      {
        "name": "Орешак",
        "latitude": 43.301,
        "longitude": 27.912,
        "type": "село"
      },
      {
        "name": "Осеново",
        "latitude": 43.3231,
        "longitude": 28.0102,
        "type": "село"
      },
      {
        "name": "Падина",
        "latitude": 43.1606,
        "longitude": 27.5734,
        "type": "село"
      },
      {
        "name": "Партизани",
        "latitude": 43.0059,
        "longitude": 27.2553,
        "type": "село"
      },
      {
        "name": "Петров дол",
        "latitude": 43.2301,
        "longitude": 27.4591,
        "type": "село"
      },
      {
        "name": "Поляците",
        "latitude": 42.9855,
        "longitude": 27.1215,
        "type": "село"
      },
      {
        "name": "Попович",
        "latitude": 42.834,
        "longitude": 27.7943,
        "type": "село"
      },
      {
        "name": "Припек",
        "latitude": 43.2542,
        "longitude": 27.7364,
        "type": "село"
      },
      {
        "name": "Приселци",
        "latitude": 43.1097,
        "longitude": 27.8289,
        "type": "село"
      },
      {
        "name": "Провадия",
        "latitude": 43.177,
        "longitude": 27.4406,
        "type": "град"
      },
      {
        "name": "Просечен",
        "latitude": 43.2914,
        "longitude": 27.6424,
        "type": "село"
      },
      {
        "name": "Пчелник",
        "latitude": 43.0127,
        "longitude": 27.6695,
        "type": "село"
      },
      {
        "name": "Равна",
        "latitude": 43.213,
        "longitude": 27.35,
        "type": "село"
      },
      {
        "name": "Равна гора",
        "latitude": 43.0584,
        "longitude": 27.8046,
        "type": "село"
      },
      {
        "name": "Радан войвода",
        "latitude": 43.5434,
        "longitude": 27.3926,
        "type": "село"
      },
      {
        "name": "Радево",
        "latitude": 43.41,
        "longitude": 27.7308,
        "type": "село"
      },
      {
        "name": "Разделна",
        "latitude": 43.1664,
        "longitude": 27.6358,
        "type": "село"
      },
      {
        "name": "Рояк",
        "latitude": 43.0864,
        "longitude": 27.3811,
        "type": "село"
      },
      {
        "name": "Рудник",
        "latitude": 42.9505,
        "longitude": 27.772,
        "type": "село"
      },
      {
        "name": "Сава",
        "latitude": 43.0308,
        "longitude": 27.3797,
        "type": "село"
      },
      {
        "name": "Садово",
        "latitude": 43.0644,
        "longitude": 27.7168,
        "type": "село"
      },
      {
        "name": "Самотино",
        "latitude": 42.9401,
        "longitude": 27.8619,
        "type": "село"
      },
      {
        "name": "Свети Константин и Елена",
        "latitude": 43.229167,
        "longitude": 28.008333,
        "type": "курорт"
      },
      {
        "name": "Синдел",
        "latitude": 43.1097,
        "longitude": 27.6052,
        "type": "село"
      },
      {
        "name": "Славейково",
        "latitude": 43.109,
        "longitude": 27.2345,
        "type": "село"
      },
      {
        "name": "Сладка вода",
        "latitude": 43.0574,
        "longitude": 27.2402,
        "type": "село"
      },
      {
        "name": "Слънчево",
        "latitude": 43.2486,
        "longitude": 27.7072,
        "type": "село"
      },
      {
        "name": "Снежина",
        "latitude": 43.1639,
        "longitude": 27.2656,
        "type": "село"
      },
      {
        "name": "Солник",
        "latitude": 42.9218,
        "longitude": 27.6522,
        "type": "село"
      },
      {
        "name": "Средно село",
        "latitude": 43.3425,
        "longitude": 27.4288,
        "type": "село"
      },
      {
        "name": "Старо Оряхово",
        "latitude": 42.9901,
        "longitude": 27.7945,
        "type": "село"
      },
      {
        "name": "Староселец",
        "latitude": 43.2292,
        "longitude": 27.4897,
        "type": "село"
      },
      {
        "name": "Стефан Караджа",
        "latitude": 43.4958,
        "longitude": 27.4115,
        "type": "село"
      },
      {
        "name": "Страхил",
        "latitude": 43.5132,
        "longitude": 27.6115,
        "type": "село"
      },
      {
        "name": "Страшимирово",
        "latitude": 43.1969,
        "longitude": 27.7358,
        "type": "село"
      },
      {
        "name": "Суворово",
        "latitude": 43.3315,
        "longitude": 27.5912,
        "type": "град"
      },
      {
        "name": "Тополи",
        "latitude": 43.217,
        "longitude": 27.8206,
        "type": "село"
      },
      {
        "name": "Тръстиково",
        "latitude": 43.1426,
        "longitude": 27.5918,
        "type": "село"
      },
      {
        "name": "Тутраканци",
        "latitude": 43.1183,
        "longitude": 27.4443,
        "type": "село"
      },
      {
        "name": "Храброво",
        "latitude": 43.4449,
        "longitude": 28.0084,
        "type": "село"
      },
      {
        "name": "Царевци",
        "latitude": 43.0914,
        "longitude": 27.5671,
        "type": "село"
      },
      {
        "name": "Цонево",
        "latitude": 43.0326,
        "longitude": 27.4392,
        "type": "село"
      },
      {
        "name": "Чайка",
        "latitude": 43.2154,
        "longitude": 27.9417,
        "type": "село"
      },
      {
        "name": "Червенци",
        "latitude": 43.5223,
        "longitude": 27.4479,
        "type": "село"
      },
      {
        "name": "Черковна",
        "latitude": 43.192,
        "longitude": 27.33,
        "type": "село"
      },
      {
        "name": "Чернево",
        "latitude": 43.2941,
        "longitude": 27.6027,
        "type": "село"
      },
      {
        "name": "Черноок",
        "latitude": 43.1361,
        "longitude": 27.2177,
        "type": "село"
      },
      {
        "name": "Шкорпиловци",
        "latitude": 42.963,
        "longitude": 27.8778,
        "type": "село"
      },
      {
        "name": "Щипско",
        "latitude": 43.3759,
        "longitude": 27.536,
        "type": "село"
      },
      {
        "name": "Юнак",
        "latitude": 43.078,
        "longitude": 27.6102,
        "type": "село"
      },
      {
        "name": "Юнец",
        "latitude": 42.9299,
        "longitude": 27.7612,
        "type": "село"
      },
      {
        "name": "Ягнило",
        "latitude": 43.3808,
        "longitude": 27.325,
        "type": "село"
      },
      {
        "name": "Яребична",
        "latitude": 43.2994,
        "longitude": 27.8736,
        "type": "село"
      }
    ]
  },
  {
    "region": "Област Велико Търново",
    "settlements": [
      {
        "name": "Алеково",
        "latitude": 43.4658,
        "longitude": 25.4201,
        "type": "село"
      },
      {
        "name": "Александрово",
        "latitude": 43.4497,
        "longitude": 25.4006,
        "type": "село"
      },
      {
        "name": "Аплаци",
        "latitude": 42.8636,
        "longitude": 25.8181,
        "type": "село"
      },
      {
        "name": "Арбанаси",
        "latitude": 43.0981,
        "longitude": 25.6692,
        "type": "село"
      },
      {
        "name": "Асеново",
        "latitude": 43.2784,
        "longitude": 26.0234,
        "type": "село"
      },
      {
        "name": "Багалевци",
        "latitude": 42.893,
        "longitude": 25.8128,
        "type": "село"
      },
      {
        "name": "Бадевци",
        "latitude": 42.8838,
        "longitude": 25.7507,
        "type": "село"
      },
      {
        "name": "Баевци",
        "latitude": 42.9227,
        "longitude": 25.7873,
        "type": "село"
      },
      {
        "name": "Баждари",
        "latitude": 42.842,
        "longitude": 25.7735,
        "type": "село"
      },
      {
        "name": "Балван",
        "latitude": 43.0853,
        "longitude": 25.4133,
        "type": "село"
      },
      {
        "name": "Балканци",
        "latitude": 43.1757,
        "longitude": 26.0109,
        "type": "село"
      },
      {
        "name": "Балуци",
        "latitude": 42.9509,
        "longitude": 25.8244,
        "type": "село"
      },
      {
        "name": "Батак",
        "latitude": 43.347,
        "longitude": 25.3373,
        "type": "село"
      },
      {
        "name": "Беброво",
        "latitude": 42.9495,
        "longitude": 26.0115,
        "type": "село"
      },
      {
        "name": "Бейковци",
        "latitude": 42.865,
        "longitude": 25.8484,
        "type": "село"
      },
      {
        "name": "Белчевци",
        "latitude": 42.8874,
        "longitude": 25.6205,
        "type": "село"
      },
      {
        "name": "Беляковец",
        "latitude": 43.1052,
        "longitude": 25.5818,
        "type": "село"
      },
      {
        "name": "Берковци",
        "latitude": 42.8867,
        "longitude": 25.7282,
        "type": "село"
      },
      {
        "name": "Бижовци",
        "latitude": 42.8254,
        "longitude": 25.6531,
        "type": "село"
      },
      {
        "name": "Благоево",
        "latitude": 43.1947,
        "longitude": 25.9632,
        "type": "село"
      },
      {
        "name": "Блъсковци",
        "latitude": 42.9553,
        "longitude": 25.8545,
        "type": "село"
      },
      {
        "name": "Богданско",
        "latitude": 42.9587,
        "longitude": 26.0315,
        "type": "село"
      },
      {
        "name": "Бойковци",
        "latitude": 42.8929,
        "longitude": 26.0961,
        "type": "село"
      },
      {
        "name": "Бойчеви колиби",
        "latitude": 42.9535,
        "longitude": 25.5902,
        "type": "село"
      },
      {
        "name": "Бойчовци",
        "latitude": 42.8609,
        "longitude": 25.641,
        "type": "село"
      },
      {
        "name": "Босевци",
        "latitude": 42.9737,
        "longitude": 25.9586,
        "type": "село"
      },
      {
        "name": "Бочковци",
        "latitude": 42.8346,
        "longitude": 25.673,
        "type": "село"
      },
      {
        "name": "Бояновци",
        "latitude": 42.9296,
        "longitude": 25.6471,
        "type": "село"
      },
      {
        "name": "Бранковци",
        "latitude": 42.942,
        "longitude": 25.6536,
        "type": "село"
      },
      {
        "name": "Брезово",
        "latitude": 42.9284,
        "longitude": 26.0123,
        "type": "село"
      },
      {
        "name": "Бръчковци",
        "latitude": 42.9299,
        "longitude": 25.8056,
        "type": "село"
      },
      {
        "name": "Бряговица",
        "latitude": 43.195,
        "longitude": 25.889,
        "type": "село"
      },
      {
        "name": "Буйновци",
        "latitude": 42.8685,
        "longitude": 25.8933,
        "type": "село"
      },
      {
        "name": "Буковец",
        "latitude": 43.0458,
        "longitude": 25.488,
        "type": "село"
      },
      {
        "name": "Бутово",
        "latitude": 43.3024,
        "longitude": 25.2164,
        "type": "село"
      },
      {
        "name": "Българско Сливово",
        "latitude": 43.5499,
        "longitude": 25.3115,
        "type": "село"
      },
      {
        "name": "Бяла река",
        "latitude": 43.1328,
        "longitude": 25.2056,
        "type": "село"
      },
      {
        "name": "Бяла черква",
        "latitude": 43.2054,
        "longitude": 25.3108,
        "type": "град"
      },
      {
        "name": "Бялковци",
        "latitude": 42.9457,
        "longitude": 26.0054,
        "type": "село"
      },
      {
        "name": "Валето",
        "latitude": 42.8747,
        "longitude": 25.9882,
        "type": "село"
      },
      {
        "name": "Вардим",
        "latitude": 43.6143,
        "longitude": 25.4584,
        "type": "село"
      },
      {
        "name": "Велико Търново",
        "latitude": 43.0757,
        "longitude": 25.6172,
        "type": "град"
      },
      {
        "name": "Велковци",
        "latitude": 42.7081,
        "longitude": 22.6706,
        "type": "село"
      },
      {
        "name": "Велчево",
        "latitude": 42.8906,
        "longitude": 24.8347,
        "type": "село"
      },
      {
        "name": "Велювци",
        "latitude": 42.8944,
        "longitude": 25.906,
        "type": "село"
      },
      {
        "name": "Веселина",
        "latitude": 42.8621,
        "longitude": 25.856,
        "type": "село"
      },
      {
        "name": "Ветринци",
        "latitude": 43.0696,
        "longitude": 25.4318,
        "type": "село"
      },
      {
        "name": "Виларе",
        "latitude": 42.8188,
        "longitude": 25.6073,
        "type": "село"
      },
      {
        "name": "Виноград",
        "latitude": 43.3386,
        "longitude": 25.8289,
        "type": "село"
      },
      {
        "name": "Високовци",
        "latitude": 42.8496,
        "longitude": 25.9608,
        "type": "село"
      },
      {
        "name": "Вишовград",
        "latitude": 43.1569,
        "longitude": 25.2986,
        "type": "село"
      },
      {
        "name": "Владислав",
        "latitude": 43.1894,
        "longitude": 25.9963,
        "type": "село"
      },
      {
        "name": "Водно",
        "latitude": 43.1081,
        "longitude": 26.0452,
        "type": "село"
      },
      {
        "name": "Водолей",
        "latitude": 43.2155,
        "longitude": 25.5082,
        "type": "село"
      },
      {
        "name": "Войнежа",
        "latitude": 42.8821,
        "longitude": 25.6754,
        "type": "село"
      },
      {
        "name": "Вонеща вода",
        "latitude": 42.8766,
        "longitude": 25.6435,
        "type": "село"
      },
      {
        "name": "Въглевци",
        "latitude": 42.908,
        "longitude": 25.6496,
        "type": "село"
      },
      {
        "name": "Вълчовци",
        "latitude": 42.9407,
        "longitude": 25.8256,
        "type": "село"
      },
      {
        "name": "Върбица",
        "latitude": 42.9982,
        "longitude": 26.6727,
        "type": "село"
      },
      {
        "name": "Върбовка",
        "latitude": 43.2379,
        "longitude": 25.1979,
        "type": "село"
      },
      {
        "name": "Вързилковци",
        "latitude": 42.9272,
        "longitude": 25.8096,
        "type": "село"
      },
      {
        "name": "Вързулица",
        "latitude": 43.4301,
        "longitude": 25.4602,
        "type": "село"
      },
      {
        "name": "Върлинка",
        "latitude": 42.9636,
        "longitude": 25.6361,
        "type": "село"
      },
      {
        "name": "Габрака",
        "latitude": 42.835,
        "longitude": 25.867,
        "type": "село"
      },
      {
        "name": "Габровци",
        "latitude": 42.9463,
        "longitude": 25.5977,
        "type": "село"
      },
      {
        "name": "Ганев дол",
        "latitude": 42.9497,
        "longitude": 25.9674,
        "type": "село"
      },
      {
        "name": "Гащевци",
        "latitude": 42.9141,
        "longitude": 25.6699,
        "type": "село"
      },
      {
        "name": "Глоговец",
        "latitude": 42.967,
        "longitude": 26.1208,
        "type": "село"
      },
      {
        "name": "Големани",
        "latitude": 42.9568,
        "longitude": 25.8344,
        "type": "село"
      },
      {
        "name": "Големаните",
        "latitude": 42.9645,
        "longitude": 25.6485,
        "type": "село"
      },
      {
        "name": "Горановци",
        "latitude": 42.7997,
        "longitude": 25.6282,
        "type": "село"
      },
      {
        "name": "Горен Еневец",
        "latitude": 42.9197,
        "longitude": 25.5654,
        "type": "село"
      },
      {
        "name": "Горна Липница",
        "latitude": 43.3004,
        "longitude": 25.4033,
        "type": "село"
      },
      {
        "name": "Горна Оряховица",
        "latitude": 43.1208,
        "longitude": 25.6897,
        "type": "град"
      },
      {
        "name": "Горна Студена",
        "latitude": 43.417,
        "longitude": 25.351,
        "type": "село"
      },
      {
        "name": "Горна Хаджийска",
        "latitude": 43.0373,
        "longitude": 25.973,
        "type": "село"
      },
      {
        "name": "Горни край",
        "latitude": 42.8127,
        "longitude": 25.7853,
        "type": "село"
      },
      {
        "name": "Горни Танчевци",
        "latitude": 42.8375,
        "longitude": 25.9199,
        "type": "село"
      },
      {
        "name": "Горска",
        "latitude": 42.897,
        "longitude": 26.0076,
        "type": "село"
      },
      {
        "name": "Горски Горен Тръмбеш",
        "latitude": 43.2221,
        "longitude": 25.8405,
        "type": "село"
      },
      {
        "name": "Горски Долен Тръмбеш",
        "latitude": 43.2104,
        "longitude": 25.8357,
        "type": "село"
      },
      {
        "name": "Горски Сеновец",
        "latitude": 43.2809,
        "longitude": 25.896,
        "type": "село"
      },
      {
        "name": "Горско Калугерово",
        "latitude": 43.1155,
        "longitude": 25.2327,
        "type": "село"
      },
      {
        "name": "Горско Косово",
        "latitude": 43.1276,
        "longitude": 25.1706,
        "type": "село"
      },
      {
        "name": "Горско Ново село",
        "latitude": 43.0879,
        "longitude": 25.9392,
        "type": "село"
      },
      {
        "name": "Горско Писарево",
        "latitude": 43.0462,
        "longitude": 26.0407,
        "type": "село"
      },